[
    {
        "name": "Anytime Fitness Bapu Nagar",
        "address": "5th Floor, Pavilion, Tonk Rd, Bapu Nagar, Jaipur, Rajasthan 302015",
        "website": "",
        "phone_number": "090574 03330",
        "reviews_count": "",
        "reviews_average": 4.5,
        "latitude": 26.8925492,
        "longitude": 75.7710301,
        "status": "New",
        "notes": ""
    },
    {
        "name": "Lemon fit gym",
        "address": "2nd Floor, Narayan Singh Circle on, Narayan Singh Cir Foot Over Bridge, Rambagh, Jaipur, Rajasthan 302005",
        "website": "lemon-fit-gym.grexa.site",
        "phone_number": "085608 24152",
        "reviews_count": "",
        "reviews_average": 5.0,
        "latitude": 26.8925492,
        "longitude": 75.7710301,
        "status": "New",
        "notes": ""
    },
    {
        "name": "KLEAN FIT Iconic C-SCHEME",
        "address": "3rd Floor, Crystal Palm Mall, 22 Godown Circle, Sardar Patel Marg, near Nehru Sahkar Bhavan, Jaipur, Rajasthan 302001",
        "website": "",
        "phone_number": "090246 62515",
        "reviews_count": "",
        "reviews_average": 4.7,
        "latitude": 26.8925492,
        "longitude": 75.7710301,
        "status": "New",
        "notes": ""
    },
    {
        "name": "Fitup Fitness Lifestyle",
        "address": "Bhagadiya Bhawan, J-33, Subhash Marg, C Scheme, Ashok Nagar, Jaipur, Rajasthan 302001",
        "website": "",
        "phone_number": "095719 95817",
        "reviews_count": "",
        "reviews_average": 4.9,
        "latitude": 26.8925492,
        "longitude": 75.7710301,
        "status": "New",
        "notes": ""
    },
    {
        "name": "SQFIT GYM",
        "address": "E-142, Ramesh Marg, Durgadas Colony, C Scheme, Ashok Nagar, Jaipur, Rajasthan 302001",
        "website": "sqfit.in",
        "phone_number": "089550 02694",
        "reviews_count": "",
        "reviews_average": 4.6,
        "latitude": 26.8925492,
        "longitude": 75.7710301,
        "status": "New",
        "notes": ""
    },
    {
        "name": "Fitness island gym (Lalkothi)",
        "address": "A1, Nehru Path, Satya Vihar, Friends Colony, Krishna Nagar II, Lalkothi, Jaipur, Rajasthan 302015",
        "website": "",
        "phone_number": "086397 36126",
        "reviews_count": "",
        "reviews_average": 4.8,
        "latitude": 26.8925492,
        "longitude": 75.7710301,
        "status": "New",
        "notes": ""
    },
    {
        "name": "CrossFit Gym",
        "address": "A-9, Janta Store Cir, Bapu Nagar, Jaipur, Rajasthan 302015",
        "website": "",
        "phone_number": "079760 13905",
        "reviews_count": "",
        "reviews_average": 4.7,
        "latitude": 26.8925492,
        "longitude": 75.7710301,
        "status": "New",
        "notes": ""
    },
    {
        "name": "Open Air Gym",
        "address": "WR34+VGJ, Central Park Jogging Path, Rambagh, Jaipur, Rajasthan 302015",
        "website": "",
        "phone_number": "",
        "reviews_count": "",
        "reviews_average": 4.8,
        "latitude": 26.8925492,
        "longitude": 75.7710301,
        "status": "New",
        "notes": ""
    },
    {
        "name": "The Core Fitness Gym",
        "address": "4th Floor, KB Tower, near Parnami Mandir, Gurunanakpura, Raja Park, Jaipur, Rajasthan 302004",
        "website": "instagram.com",
        "phone_number": "077373 50359",
        "reviews_count": "",
        "reviews_average": 4.9,
        "latitude": 26.8925492,
        "longitude": 75.7710301,
        "status": "New",
        "notes": ""
    },
    {
        "name": "Anytime Fitness",
        "address": "No C21/B, 5th Floor, City Mall, Bhagwan Das Rd, C-Scheme, C Scheme, Ashok Nagar, Jaipur, Rajasthan 302001",
        "website": "anytimefitness.co.in",
        "phone_number": "092160 55342",
        "reviews_count": "",
        "reviews_average": 4.6,
        "latitude": 26.8925492,
        "longitude": 75.7710301,
        "status": "New",
        "notes": ""
    },
    {
        "name": "X CORE Fitness - Gym & Fitness Center | C-scheme Jaipur",
        "address": "4th Floor, City Mall, 406 to 411, Ashok Marg, opposite Shree Rajput Sabha bhawan, C-Scheme, C Scheme, Ashok Nagar, Jaipur, Rajasthan 302001",
        "website": "",
        "phone_number": "082908 86661",
        "reviews_count": "",
        "reviews_average": 4.4,
        "latitude": 26.8925492,
        "longitude": 75.7710301,
        "status": "New",
        "notes": ""
    },
    {
        "name": "Pro Ultimate Gyms Rajapark",
        "address": "2 nd Floor, Govind Mag, SDC Prime, Rajapark, Jaipur, Rajasthan 302004",
        "website": "proultimategyms.in",
        "phone_number": "",
        "reviews_count": "",
        "reviews_average": 4.9,
        "latitude": 26.8925492,
        "longitude": 75.7710301,
        "status": "New",
        "notes": ""
    },
    {
        "name": "Mad For Fitness | Best Gym in C-Scheme Jaipur",
        "address": "3rd Floor, Ahinsa Circle, D-38A, Ashok Marg, C Scheme, Ashok Nagar, Jaipur, Rajasthan 302001",
        "website": "",
        "phone_number": "070144 33443",
        "reviews_count": "",
        "reviews_average": 4.9,
        "latitude": 26.8925492,
        "longitude": 75.7710301,
        "status": "New",
        "notes": ""
    },
    {
        "name": "Crude Fit | Raja Park's Best Gym",
        "address": "Ground & 2nd Floor, B-16B, Dhruv Marg, Tilak Nagar, Raja Park, Jaipur, Rajasthan 302004",
        "website": "instagram.com",
        "phone_number": "095212 18821",
        "reviews_count": "",
        "reviews_average": 4.9,
        "latitude": 26.8925492,
        "longitude": 75.7710301,
        "status": "New",
        "notes": ""
    },
    {
        "name": "LIFT & FIT gym",
        "address": "Satya Vihar, Krishna Nagar II, Lalkothi, Jaipur, Rajasthan 302015",
        "website": "",
        "phone_number": "094610 61508",
        "reviews_count": "",
        "reviews_average": 4.9,
        "latitude": 26.8925492,
        "longitude": 75.7710301,
        "status": "New",
        "notes": ""
    },
    {
        "name": "MaxFit Folks - Elite Personal training club, C-Scheme",
        "address": "E-159, Ramesh Marg, C Scheme, Ashok Nagar, Jaipur, Rajasthan 302001",
        "website": "",
        "phone_number": "099285 05942",
        "reviews_count": "",
        "reviews_average": 4.9,
        "latitude": 26.8925492,
        "longitude": 75.7710301,
        "status": "New",
        "notes": ""
    },
    {
        "name": "Salt Fitness | Pilates and Strength Studio",
        "address": "C-39, Lajpat Marg, next to crazy coffee, Panch Batti, C Scheme, Ashok Nagar, Jaipur, Rajasthan 302001",
        "website": "saltfitness.in",
        "phone_number": "099285 57556",
        "reviews_count": "",
        "reviews_average": 4.9,
        "latitude": 26.8925492,
        "longitude": 75.7710301,
        "status": "New",
        "notes": ""
    },
    {
        "name": "The Top Gym",
        "address": "6, Vivekanand Marg, Panch Batti, Sangram Colony, Ashok Nagar, Jaipur, Rajasthan 302001",
        "website": "",
        "phone_number": "",
        "reviews_count": "",
        "reviews_average": 4.4,
        "latitude": 26.8925492,
        "longitude": 75.7710301,
        "status": "New",
        "notes": ""
    },
    {
        "name": "Gym",
        "address": "Satya Vihar, Indra Puri, Vidhayak Nagar, Lalkothi, Jaipur, Rajasthan 302015",
        "website": "",
        "phone_number": "",
        "reviews_count": "",
        "reviews_average": 4.1,
        "latitude": 26.8925492,
        "longitude": 75.7710301,
        "status": "New",
        "notes": ""
    },
    {
        "name": "SPOFIT GYM",
        "address": "HOSTEL, S S JAIN SUBODH PG AUTONOMOUS COLLEGE, Rambagh, Jaipur, Rajasthan 302004",
        "website": "",
        "phone_number": "",
        "reviews_count": "",
        "reviews_average": "",
        "latitude": 26.8925492,
        "longitude": 75.7710301,
        "status": "New",
        "notes": ""
    },
    {
        "name": "Anytime Fitness",
        "address": "1st Floor, Udb Business Avenue, Saket Colony, Adarsh Nagar, Jaipur, Rajasthan 302004",
        "website": "anytimefitness.co.in",
        "phone_number": "092160 55343",
        "reviews_count": "",
        "reviews_average": 4.6,
        "latitude": 26.899789,
        "longitude": 75.7984194,
        "status": "New",
        "notes": ""
    },
    {
        "name": "FITCORE GYM",
        "address": "D93A, Acharya Kriplani Marg, Anand Puri, Nagar, Adarsh Nagar, Jaipur, Rajasthan 302004",
        "website": "",
        "phone_number": "080056 13265",
        "reviews_count": "",
        "reviews_average": 4.8,
        "latitude": 26.899789,
        "longitude": 75.7984194,
        "status": "New",
        "notes": ""
    },
    {
        "name": "The Real Fitness Gym",
        "address": "A, 7, Jamnalal Bajaj Marg, Shivaji Nagar, C Scheme, Hathroi, Jaipur, Rajasthan 302001",
        "website": "",
        "phone_number": "095497 20720",
        "reviews_count": "",
        "reviews_average": 4.5,
        "latitude": 26.9085675,
        "longitude": 75.7557626,
        "status": "New",
        "notes": ""
    },
    {
        "name": "The Reformer Studio | Best Gym in Jaipur",
        "address": "2nd Floor, J-25, Subhash Marg, C Scheme, Ashok Nagar, Jaipur, Rajasthan 302001",
        "website": "thereformerstudio.in",
        "phone_number": "099288 66682",
        "reviews_count": "",
        "reviews_average": 5.0,
        "latitude": 26.9085675,
        "longitude": 75.7557626,
        "status": "New",
        "notes": ""
    },
    {
        "name": "The Gym Eagles (Gym Near Raja Park)",
        "address": "338-A, hotel City home, Gali No. 4, Gurunanakpura, Raja Park, Jaipur, Rajasthan 302004",
        "website": "",
        "phone_number": "094688 87279",
        "reviews_count": "",
        "reviews_average": 4.3,
        "latitude": 26.8940213,
        "longitude": 75.7900381,
        "status": "New",
        "notes": ""
    },
    {
        "name": "Better U Fitness",
        "address": "No.1, 1st Floor, Of tea connect, Near, 189, Ram Gali, Panchwati Cir, Raja Park, Jaipur, Rajasthan 302004",
        "website": "",
        "phone_number": "078913 74860",
        "reviews_count": "",
        "reviews_average": 4.9,
        "latitude": 26.8940213,
        "longitude": 75.7900381,
        "status": "New",
        "notes": ""
    },
    {
        "name": "Fit O'Clock",
        "address": "1st floor, jamuna tower, govind Marg Anand puri, bees dukan Adarsh Nagar, Raja Park, Jaipur, Rajasthan 302004",
        "website": "fitoclock.co.in",
        "phone_number": "092160 56417",
        "reviews_count": "",
        "reviews_average": 4.6,
        "latitude": 26.8940213,
        "longitude": 75.7900381,
        "status": "New",
        "notes": ""
    },
    {
        "name": "1fit gym",
        "address": "300, Bholasar, Gurunanak Pura, Gurunanakpura, Raja Park, Jaipur, Rajasthan 302004",
        "website": "",
        "phone_number": "081079 78869",
        "reviews_count": "",
        "reviews_average": 4.9,
        "latitude": 26.8940213,
        "longitude": 75.7900381,
        "status": "New",
        "notes": ""
    },
    {
        "name": "Icon fitness club",
        "address": "J-96, Tiwari Ji Ka Bagh, Ashok Chowk, Adarsh Nagar, Jaipur, Rajasthan 302004",
        "website": "",
        "phone_number": "",
        "reviews_count": "",
        "reviews_average": 4.7,
        "latitude": 26.8940213,
        "longitude": 75.7900381,
        "status": "New",
        "notes": ""
    },
    {
        "name": "Talwalkars HiFi Gym, Raja Park",
        "address": "Talwarkar Hi Fi gym, bank of baroda, near A.C. Market, Raja Park, Jaipur, Rajasthan 302004",
        "website": "",
        "phone_number": "086195 17256",
        "reviews_count": "",
        "reviews_average": 4.9,
        "latitude": 26.8940213,
        "longitude": 75.7900381,
        "status": "New",
        "notes": ""
    },
    {
        "name": "Body Shaper The Gym",
        "address": "5, kailash vihar, New, Vidhan Sabha Rd, behind Kailash Tower, Satya Vihar, Greater Kailash Colony, Vidhayak Nagar, Lalkothi, Jaipur, Rajasthan 302015",
        "website": "",
        "phone_number": "098290 19227",
        "reviews_count": "",
        "reviews_average": 4.5,
        "latitude": 26.8882513,
        "longitude": 75.7663857,
        "status": "New",
        "notes": ""
    },
    {
        "name": "FitCity by Abhishek",
        "address": "D, 29, Subhash Marg, Panch Batti, C Scheme, Ashok Nagar, Jaipur, Rajasthan 302001",
        "website": "",
        "phone_number": "",
        "reviews_count": "",
        "reviews_average": 4.9,
        "latitude": 26.8882513,
        "longitude": 75.7663857,
        "status": "New",
        "notes": ""
    },
    {
        "name": "Fit & Fab Studio - gym",
        "address": "Plot C- 49-50, Tonk Rd, opposite Shree Rama Krishna Hospital, Satya Vihar, Greater Kailash Colony, Vidhayak Nagar, Lalkothi, Jaipur, Rajasthan 302015",
        "website": "",
        "phone_number": "",
        "reviews_count": "",
        "reviews_average": 4.7,
        "latitude": 26.8882513,
        "longitude": 75.7663857,
        "status": "New",
        "notes": ""
    },
    {
        "name": "Sweat Box raja park",
        "address": "145, 3, Fashion St, near ram mandir, Raja Park, Jaipur, Rajasthan 302004",
        "website": "",
        "phone_number": "063502 06925",
        "reviews_count": "",
        "reviews_average": 4.8,
        "latitude": 26.8950256,
        "longitude": 75.7956246,
        "status": "New",
        "notes": ""
    },
    {
        "name": "Max fit gym",
        "address": "Besment of Hotel Sky Heights, Gali No.2, LBS College Marg, Raja Park, Jaipur, Rajasthan 302004",
        "website": "",
        "phone_number": "",
        "reviews_count": "",
        "reviews_average": 5.0,
        "latitude": 26.8950256,
        "longitude": 75.7956246,
        "status": "New",
        "notes": ""
    },
    {
        "name": "Project Fit",
        "address": "21, Sahakar Marg, Jyothi Nagar, Lalkothi, Jaipur, Rajasthan 302001",
        "website": "projectfit.in",
        "phone_number": "097733 66678",
        "reviews_count": "",
        "reviews_average": 4.8,
        "latitude": 26.9008898,
        "longitude": 75.7566654,
        "status": "New",
        "notes": ""
    },
    {
        "name": "The Raw Muscle Gym | Best Gym in Jaipur | Top Fitness Center in Jaipur",
        "address": "Plot no 259, Gali No. 4, Raja Park, Jaipur, Rajasthan 302004",
        "website": "rawmusclegym.com",
        "phone_number": "070144 76292",
        "reviews_count": "",
        "reviews_average": 5.0,
        "latitude": 26.8924135,
        "longitude": 75.7945421,
        "status": "New",
        "notes": ""
    },
    {
        "name": "Burnfit gym | Best Gym In Jaipur",
        "address": "Plot no. A-7, behind Mehta book depo, Telephone Colony, Bank Colony, Gopal Pura Mode, Jaipur, Rajasthan 302015",
        "website": "",
        "phone_number": "082906 01516",
        "reviews_count": "",
        "reviews_average": 4.8,
        "latitude": 26.8769474,
        "longitude": 75.7606942,
        "status": "New",
        "notes": ""
    },
    {
        "name": "Fitness Gym by Aroha",
        "address": "B-11, behind Kailash Tower, Satya Vihar, Indra Puri, Vidhayak Nagar, Lalkothi, Jaipur, Rajasthan 302015",
        "website": "",
        "phone_number": "063674 08202",
        "reviews_count": "",
        "reviews_average": 5.0,
        "latitude": 26.8769474,
        "longitude": 75.7606942,
        "status": "New",
        "notes": ""
    },
    {
        "name": "FITNESS LIFESTYLE GYM",
        "address": "2F, B-89, Janta Colony, Janata Colony, Jaipur, Rajasthan 302004",
        "website": "fitnesslifestylegym.in",
        "phone_number": "089492 43084",
        "reviews_count": "",
        "reviews_average": 4.8,
        "latitude": 26.907397,
        "longitude": 75.8007771,
        "status": "New",
        "notes": ""
    },
    {
        "name": "Coach AJ Fitness - Elite Fitness Studio",
        "address": "A-24, 5th Floor, Jharwal House, Sardar Patel Marg, opp. Government Press, C-Scheme, Patel Colony, Jaipur, Rajasthan 302001",
        "website": "",
        "phone_number": "097721 22222",
        "reviews_count": "",
        "reviews_average": 4.9,
        "latitude": 26.9154325,
        "longitude": 75.7639279,
        "status": "New",
        "notes": ""
    },
    {
        "name": "CARDIO EXPRESS FITNESS (GYM)",
        "address": "1 floor, 88, Gurunanakpura, Raja Park, Jaipur, Rajasthan 302004",
        "website": "",
        "phone_number": "091666 61116",
        "reviews_count": "",
        "reviews_average": 4.8,
        "latitude": 26.8965079,
        "longitude": 75.7886018,
        "status": "New",
        "notes": ""
    },
    {
        "name": "DNA POWER FITNESS CENTER - BANIPARK",
        "address": "D-188, ARG-Jugal Enclave, Kanti Chandra Rd, near Pareek College, Banipark, Jaipur, Rajasthan 302006",
        "website": "",
        "phone_number": "097821 73609",
        "reviews_count": "",
        "reviews_average": 4.7,
        "latitude": 26.9269444,
        "longitude": 75.764616,
        "status": "New",
        "notes": ""
    },
    {
        "name": "Fitness Zone",
        "address": "D-44 basement, Aarudha apartment, Shanti Path, Sector 7, Jawahar Nagar, Jaipur, Rajasthan 302004",
        "website": "",
        "phone_number": "098282 61787",
        "reviews_count": "",
        "reviews_average": 4.6,
        "latitude": 26.8934419,
        "longitude": 75.79792,
        "status": "New",
        "notes": ""
    },
    {
        "name": "RM FITNESS GYM",
        "address": "J 42, Hawa Sadak, Sharma Colony, Bais Godam, Jaipur, Rajasthan 302019",
        "website": "",
        "phone_number": "",
        "reviews_count": "",
        "reviews_average": 4.5,
        "latitude": 26.896601,
        "longitude": 75.7504181,
        "status": "New",
        "notes": ""
    },
    {
        "name": "Fitness Forge Gym",
        "address": "SS Bhandari Nagar MJRP Circle, A-66, Swej Farm Rd, behind Zudio, Sunder Singh Bhandari Nagar, Ganesh Nagar, Sodala, Jaipur, Rajasthan 302019",
        "website": "",
        "phone_number": "099295 38007",
        "reviews_count": "",
        "reviews_average": 4.8,
        "latitude": 26.896601,
        "longitude": 75.7504181,
        "status": "New",
        "notes": ""
    },
    {
        "name": "Fitness Connection - The best gym in rajapark",
        "address": "Plot No 438 3 B Om Jaideep Residency Opp Chandra Sekhar Aazad Park, Raja Park Jaipur, Jaipur, Rajasthan 302004",
        "website": "",
        "phone_number": "080033 49770",
        "reviews_count": "",
        "reviews_average": 5.0,
        "latitude": 26.8942336,
        "longitude": 75.7913156,
        "status": "New",
        "notes": ""
    },
    {
        "name": "STAY Y FIT - Fitness Center in Jaipur",
        "address": "Stay Y Fit Gym 2nd Floor 1-KA-11 Near Mama Ki Hotel, HDFC Bank Building, Jaipur, Rajasthan 302004",
        "website": "",
        "phone_number": "",
        "reviews_count": "",
        "reviews_average": 4.8,
        "latitude": 26.8942336,
        "longitude": 75.7913156,
        "status": "New",
        "notes": ""
    },
    {
        "name": "Shape Shifters Gym",
        "address": "Root and teeth, opposite pink City, Krishna Nagar-B, Avadhpuri, Mahesh Nagar, honda, Jaipur, Rajasthan 302015",
        "website": "",
        "phone_number": "080055 81241",
        "reviews_count": "",
        "reviews_average": 4.4,
        "latitude": 26.8797,
        "longitude": 75.7514305,
        "status": "New",
        "notes": ""
    },
    {
        "name": "Fitness First Gym",
        "address": "283B, Gali Number 5, near Hotel Bliss, Raja Park, Jaipur, Rajasthan 302004",
        "website": "",
        "phone_number": "088753 32244",
        "reviews_count": "",
        "reviews_average": 4.7,
        "latitude": 26.8921159,
        "longitude": 75.7932767,
        "status": "New",
        "notes": ""
    },
    {
        "name": "Gymazia",
        "address": "LBS College Marg, B103, Udai Marg, Tilak Nagar, Jaipur, Rajasthan 302004",
        "website": "",
        "phone_number": "088900 94095",
        "reviews_count": "",
        "reviews_average": 4.8,
        "latitude": 26.8921159,
        "longitude": 75.7932767,
        "status": "New",
        "notes": ""
    },
    {
        "name": "Powertec Fitness",
        "address": "Bardia Colony, Fateh Tibba, Adarsh Nagar, Jaipur, Rajasthan 302004",
        "website": "powertecfitness.in",
        "phone_number": "089551 69240",
        "reviews_count": "",
        "reviews_average": 5.0,
        "latitude": 26.8921159,
        "longitude": 75.7932767,
        "status": "New",
        "notes": ""
    },
    {
        "name": "Fitness point Gym",
        "address": "WR99+FF7, Radio Market, Pink City, Jaipur, Rajasthan 302003",
        "website": "",
        "phone_number": "098293 08026",
        "reviews_count": "",
        "reviews_average": 4.2,
        "latitude": 26.9186662,
        "longitude": 75.7826291,
        "status": "New",
        "notes": ""
    },
    {
        "name": "One Rule Gym",
        "address": "Plot no. 259, Gali No. 4, Raja Park, Jaipur, Rajasthan 302004",
        "website": "instagram.com",
        "phone_number": "",
        "reviews_count": "",
        "reviews_average": 5.0,
        "latitude": 26.9186662,
        "longitude": 75.7826291,
        "status": "New",
        "notes": ""
    },
    {
        "name": "Body Temple Gym 2",
        "address": "Plot No.8, near prince hotel, Ambedkar Nagar, Tonk Phatak, Jaipur, Rajasthan 302015",
        "website": "",
        "phone_number": "096673 19072",
        "reviews_count": "",
        "reviews_average": 4.9,
        "latitude": 26.88125,
        "longitude": 75.7603771,
        "status": "New",
        "notes": ""
    },
    {
        "name": "Workout Adda, Unisex Gym",
        "address": "120, Govind Marg, Adarsh Krishna Nagar, Bhagwati Nagar, Gopal Pura Mode, Jaipur, Rajasthan 302015",
        "website": "",
        "phone_number": "097828 66245",
        "reviews_count": "",
        "reviews_average": 4.4,
        "latitude": 26.88125,
        "longitude": 75.7603771,
        "status": "New",
        "notes": ""
    },
    {
        "name": "The Fit Life Gym",
        "address": "B-493 JDA park, 80 Feet Rd, Mahesh Nagar, Jaipur, Rajasthan 302015",
        "website": "",
        "phone_number": "070147 55942",
        "reviews_count": "",
        "reviews_average": 4.9,
        "latitude": 26.88125,
        "longitude": 75.7603771,
        "status": "New",
        "notes": ""
    },
    {
        "name": "Jaipur fitness gym",
        "address": "40, Nh-8 Bypass Rd, Gulzar Colony, Lal Dungri, Jaipur, Rajasthan 302002",
        "website": "instagram.com",
        "phone_number": "088298 67760",
        "reviews_count": "",
        "reviews_average": 4.8,
        "latitude": 26.9297391,
        "longitude": 75.8095429,
        "status": "New",
        "notes": ""
    },
    {
        "name": "Fitness Destination - 9 Gym",
        "address": "49-GHA, Sector 6, Jawahar Nagar, Jaipur, Rajasthan 302004",
        "website": "instagram.com",
        "phone_number": "080057 13879",
        "reviews_count": "",
        "reviews_average": 4.9,
        "latitude": 26.8916582,
        "longitude": 75.7968268,
        "status": "New",
        "notes": ""
    },
    {
        "name": "FIT & GOLD GYM",
        "address": "7 Jha 22 Jawahar Nagar Road Raja Park Jawahar Nagar puliya no 1, near Juicy Corner, Jaipur, Rajasthan 302004",
        "website": "instagram.com",
        "phone_number": "096605 55556",
        "reviews_count": "",
        "reviews_average": 4.7,
        "latitude": 26.8916582,
        "longitude": 75.7968268,
        "status": "New",
        "notes": ""
    },
    {
        "name": "Cult Gym Raja Park | Gym in Raja Park, Jaipur",
        "address": "No B10H, Plot, Govind Marg, near Parnami Mandir, Anand Puri, Bees Dukan, Raja Park, Jaipur, Rajasthan 302004",
        "website": "cult.fit",
        "phone_number": "086195 43362",
        "reviews_count": "",
        "reviews_average": "",
        "latitude": 26.8916582,
        "longitude": 75.7968268,
        "status": "New",
        "notes": ""
    },
    {
        "name": "Physique Gym",
        "address": "463, 4, Raja Park, Jaipur, Rajasthan 302004",
        "website": "",
        "phone_number": "098290 58689",
        "reviews_count": "",
        "reviews_average": 3.9,
        "latitude": 26.8916582,
        "longitude": 75.7968268,
        "status": "New",
        "notes": ""
    },
    {
        "name": "FIT N BLAZE",
        "address": "Gulati Residancy, 2A, near S J PUBLIC SCHOOL, Janta Colony, Janata Colony, Jaipur, Rajasthan 302004",
        "website": "fitnblazegym.com",
        "phone_number": "063753 09545",
        "reviews_count": "",
        "reviews_average": 4.6,
        "latitude": 26.8916582,
        "longitude": 75.7968268,
        "status": "New",
        "notes": ""
    },
    {
        "name": "Elite Class Fitness",
        "address": "5-TA-18, near Buffet House, Sector 5, Jawahar Nagar, Jaipur, Rajasthan 302004",
        "website": "",
        "phone_number": "",
        "reviews_count": "",
        "reviews_average": 4.6,
        "latitude": 26.8916582,
        "longitude": 75.7968268,
        "status": "New",
        "notes": ""
    },
    {
        "name": "The Strongsoul Studio",
        "address": "16, Frontier Colony, Adarsh Nagar, Jaipur, Rajasthan 302004",
        "website": "",
        "phone_number": "098199 60011",
        "reviews_count": "",
        "reviews_average": 4.9,
        "latitude": 26.8916582,
        "longitude": 75.7968268,
        "status": "New",
        "notes": ""
    },
    {
        "name": "New Shape Up Gym",
        "address": "1193 Raithal house Uniara Roa, Hunuman Ji Ka Rasta, near SBI Bank, Chandpole, Purani Basti, Jaipur, Rajasthan 302001",
        "website": "",
        "phone_number": "096720 77771",
        "reviews_count": "",
        "reviews_average": 4.6,
        "latitude": 26.9271388,
        "longitude": 75.7748168,
        "status": "New",
        "notes": ""
    },
    {
        "name": "Carewell gym",
        "address": "302007, Janakpuri II, Imli Phatak, Tonk Phatak, Jaipur, Rajasthan 302015",
        "website": "",
        "phone_number": "",
        "reviews_count": "",
        "reviews_average": 4.3,
        "latitude": 26.891677,
        "longitude": 75.7568518,
        "status": "New",
        "notes": ""
    },
    {
        "name": "V3 Fitness",
        "address": "2177, Raja Shiv Das Ji Ka Rasta, Chandpole, Pink City, Jaipur, Rajasthan 302001",
        "website": "v3fitness.com",
        "phone_number": "093148 88000",
        "reviews_count": "",
        "reviews_average": 4.1,
        "latitude": 26.9285534,
        "longitude": 75.7825696,
        "status": "New",
        "notes": ""
    },
    {
        "name": "Prayaas Fitness Studio",
        "address": "20, Gangawal Park, Adarsh Nagar, Jaipur, Rajasthan 302004",
        "website": "",
        "phone_number": "",
        "reviews_count": "",
        "reviews_average": 4.3,
        "latitude": 26.9004255,
        "longitude": 75.782582,
        "status": "New",
        "notes": ""
    },
    {
        "name": "Expert Gym",
        "address": "S/98, near Agawal School, Shanti Nagar, Civil Lines, Jaipur, Rajasthan 302006",
        "website": "",
        "phone_number": "098290 66814",
        "reviews_count": "",
        "reviews_average": 4.7,
        "latitude": 26.9138619,
        "longitude": 75.7417139,
        "status": "New",
        "notes": ""
    },
    {
        "name": "ORYX FITNESS COMPANY FITNESS AT YOUR DOORSTEP",
        "address": "122D, Ram Gali Number 4, near AVM SCHOOL, Raja Park, Jaipur, Rajasthan 302004",
        "website": "oryxfitness.com",
        "phone_number": "099833 23332",
        "reviews_count": "",
        "reviews_average": 4.9,
        "latitude": 26.8953698,
        "longitude": 75.7960824,
        "status": "New",
        "notes": ""
    },
    {
        "name": "Prime Fitness Gym",
        "address": "475, Vyas Marg, Raja Park, Jaipur, Rajasthan 302004",
        "website": "",
        "phone_number": "",
        "reviews_count": "",
        "reviews_average": 5.0,
        "latitude": 26.8953698,
        "longitude": 75.7960824,
        "status": "New",
        "notes": ""
    },
    {
        "name": "Elite Fitness World",
        "address": "M-29, JP Phatak Under Pass Rd, Mahesh Colony, Ambedkar Nagar, Tonk Phatak, Jaipur, Rajasthan 302015",
        "website": "",
        "phone_number": "098877 36132",
        "reviews_count": "",
        "reviews_average": 4.6,
        "latitude": 26.881972,
        "longitude": 75.7594471,
        "status": "New",
        "notes": ""
    },
    {
        "name": "Flex Studio's Gym & Fitness",
        "address": "450, Tatkaleshwarpuri, Hida Ki Mori, Ramganj Bazar, Jaipur, Rajasthan 302003",
        "website": "",
        "phone_number": "095218 88899",
        "reviews_count": "",
        "reviews_average": 4.5,
        "latitude": 26.9244088,
        "longitude": 75.8019133,
        "status": "New",
        "notes": ""
    },
    {
        "name": "Vault Fitness Jaipur (Best Personal Training Studio)",
        "address": "3rd floor, A-40, Chabra Rd, near BJP office, Shree Ram Colony, Hawa Sadak, Ramnagar, Jaipur, Rajasthan 302019",
        "website": "",
        "phone_number": "083878 75233",
        "reviews_count": "",
        "reviews_average": 4.9,
        "latitude": 26.8968664,
        "longitude": 75.7443407,
        "status": "New",
        "notes": ""
    },
    {
        "name": "Natural fitness gym",
        "address": "Office no- 2, Harchand plaza, car parking, near, NBC Rd, Kamala Nehru Nagar, Hasanpura, Jaipur, Rajasthan 302006",
        "website": "",
        "phone_number": "088904 50309",
        "reviews_count": "",
        "reviews_average": 4.7,
        "latitude": 26.8968664,
        "longitude": 75.7443407,
        "status": "New",
        "notes": ""
    },
    {
        "name": "WORKOUT ADDA ELITE THE LUXURY GYM",
        "address": "Pn 114 B, Krishna Nagar-B, Avadhpuri, Mahesh Nagar, Gopal Pura Mode, Jaipur, Rajasthan 302015",
        "website": "",
        "phone_number": "096800 38787",
        "reviews_count": "",
        "reviews_average": 4.9,
        "latitude": 26.8968664,
        "longitude": 75.7443407,
        "status": "New",
        "notes": ""
    },
    {
        "name": "V Fitness Health Club",
        "address": "honda showroom, G.S. Apartment, near Jajoo Tower, Hawa Sadak, Bais Godam, Jaipur, Rajasthan 302006",
        "website": "",
        "phone_number": "",
        "reviews_count": "",
        "reviews_average": 4.7,
        "latitude": 26.8968664,
        "longitude": 75.7443407,
        "status": "New",
        "notes": ""
    },
    {
        "name": "Fitness king gym 2.0",
        "address": "498, 60ft. Road , surya nagar , sudama kuti, gopalpura bypass, road, Mahesh Nagar, Jaipur, Rajasthan 302015",
        "website": "",
        "phone_number": "078780 02270",
        "reviews_count": "",
        "reviews_average": 5.0,
        "latitude": 26.8968664,
        "longitude": 75.7443407,
        "status": "New",
        "notes": ""
    },
    {
        "name": "Mahaveer Vyayam Shala (MVS Gym)",
        "address": "Maniharo Ka Rasta, Radio Market, Mahaveer park, Jaipur, Rajasthan 302003",
        "website": "",
        "phone_number": "080037 41202",
        "reviews_count": "",
        "reviews_average": 4.9,
        "latitude": 26.9209685,
        "longitude": 75.7835381,
        "status": "New",
        "notes": ""
    },
    {
        "name": "personal training gym c scheme",
        "address": "Ground floor, G-2, Parivahan Marg, behind hotel rajmahal palace, Shivaji Nagar, C Scheme, Jaipur, Rajasthan 302001",
        "website": "8stepstudios.com",
        "phone_number": "080030 40506",
        "reviews_count": "",
        "reviews_average": 4.9,
        "latitude": 26.9059085,
        "longitude": 75.754798,
        "status": "New",
        "notes": ""
    },
    {
        "name": "Golden Gym",
        "address": "WR94+39X, Mirza Ismail Rd, nawab Kallan ka bagh, Pink City, Jaipur, Rajasthan 302001",
        "website": "facebook.com",
        "phone_number": "",
        "reviews_count": "",
        "reviews_average": 4.7,
        "latitude": 26.9059085,
        "longitude": 75.754798,
        "status": "New",
        "notes": ""
    },
    {
        "name": "Fitness Fort Gym",
        "address": "2nd, Krishna Nagar-B, Avadhpuri, Mahesh Nagar, Gopal Pura Mode, Jaipur, Rajasthan 302015",
        "website": "",
        "phone_number": "097857 00009",
        "reviews_count": "",
        "reviews_average": 4.7,
        "latitude": 26.9059085,
        "longitude": 75.754798,
        "status": "New",
        "notes": ""
    },
    {
        "name": "sweat house unisex gym",
        "address": "1/A, near intregal bank, near kartarpura phatak, Chitragupta Nagar-II, Kidwai Nagar, Tonk Phatak, Jaipur, Rajasthan 302015",
        "website": "",
        "phone_number": "096105 78933",
        "reviews_count": "",
        "reviews_average": 4.6,
        "latitude": 26.9059085,
        "longitude": 75.754798,
        "status": "New",
        "notes": ""
    },
    {
        "name": "Body temple gym 1",
        "address": "M-1 Gali no-23, Telephone Colony, Madhuvan Colony, Bank Colony, Tonk Phatak, Jaipur, Rajasthan 302015",
        "website": "",
        "phone_number": "096673 19072",
        "reviews_count": "",
        "reviews_average": 4.8,
        "latitude": 26.8758108,
        "longitude": 75.7604775,
        "status": "New",
        "notes": ""
    },
    {
        "name": "NB Fitness GYM",
        "address": "VQRG+W65, Ramnagar Extension, Ramnagar, Jaipur, Rajasthan 302019",
        "website": "",
        "phone_number": "",
        "reviews_count": "",
        "reviews_average": 5.0,
        "latitude": 26.8922667,
        "longitude": 75.7395617,
        "status": "New",
        "notes": ""
    },
    {
        "name": "Fitness 24hrs GYM",
        "address": "Plot no 13 uma path govindpuri, f block, Ram nagar, Sodala, Jaipur, Rajasthan 302019",
        "website": "instagram.com",
        "phone_number": "096026 15559",
        "reviews_count": "",
        "reviews_average": 4.9,
        "latitude": 26.8922667,
        "longitude": 75.7395617,
        "status": "New",
        "notes": ""
    },
    {
        "name": "The X Fitness Club - GYM",
        "address": "Front Of JDA park, 80 Feet Rd, Mahesh Nagar, Gopal Pura Mode, Jaipur, Rajasthan 302015",
        "website": "",
        "phone_number": "080587 01971",
        "reviews_count": "",
        "reviews_average": 4.7,
        "latitude": 26.8922667,
        "longitude": 75.7395617,
        "status": "New",
        "notes": ""
    },
    {
        "name": "The gym fitness mania",
        "address": "Sansar Chandra Rd, Shri Ram Colony, Sindhi Camp, Jaipur, Rajasthan 302001",
        "website": "",
        "phone_number": "",
        "reviews_count": "",
        "reviews_average": 4.7,
        "latitude": 26.9222371,
        "longitude": 75.7688032,
        "status": "New",
        "notes": ""
    },
    {
        "name": "Kasrat-The FItness Club",
        "address": "Plot No.17,sitaram colony,ramnagar, Sodala, Jaipur, Rajasthan 302019",
        "website": "",
        "phone_number": "096942 27726",
        "reviews_count": "",
        "reviews_average": 4.9,
        "latitude": 26.8965423,
        "longitude": 75.7407838,
        "status": "New",
        "notes": ""
    },
    {
        "name": "Fitness Connection Gym",
        "address": "VQPR+JWJ, Chitragupta Nagar-II, Imli Phatak, Tonk Phatak, Jaipur, Rajasthan 302015",
        "website": "",
        "phone_number": "089520 04268",
        "reviews_count": "",
        "reviews_average": 5.0,
        "latitude": 26.8965423,
        "longitude": 75.7407838,
        "status": "New",
        "notes": ""
    },
    {
        "name": "Dream Fitness | Unisex Gym | Fitness Center",
        "address": "28, Gopalpura Bypass Rd, Ashok Vihar Extension, Vishveshvariya Nagar, Arjun Nagar, Jaipur, Rajasthan 302018",
        "website": "",
        "phone_number": "096496 11888",
        "reviews_count": "",
        "reviews_average": 4.5,
        "latitude": 26.8664716,
        "longitude": 75.7491566,
        "status": "New",
        "notes": ""
    },
    {
        "name": "Anurag Sharma's WORKOUTS WELLNESS",
        "address": "4 ka 18, Jawahar Nagar, Jaipur, Rajasthan 302004",
        "website": "workoutsthegym.in",
        "phone_number": "078781 05255",
        "reviews_count": "",
        "reviews_average": 4.4,
        "latitude": 26.8842843,
        "longitude": 75.7985737,
        "status": "New",
        "notes": ""
    },
    {
        "name": "Lions Health Club(GYM)",
        "address": "PLOTNO.NO.3,4,Gopi Vihar, Barkat Nagar, Chauhara, Jaipur, Rajasthan 302015",
        "website": "",
        "phone_number": "088904 97015",
        "reviews_count": "",
        "reviews_average": 4.4,
        "latitude": 26.8789895,
        "longitude": 75.7544269,
        "status": "New",
        "notes": ""
    },
    {
        "name": "FBD (Fitness By Dhanraj)",
        "address": "Address- 76-77, Shri Ram Colony, Hawa Sadak, Sodala, Jaipur, Rajasthan 302019",
        "website": "",
        "phone_number": "085049 20215",
        "reviews_count": "",
        "reviews_average": 4.9,
        "latitude": 26.8789895,
        "longitude": 75.7544269,
        "status": "New",
        "notes": ""
    },
    {
        "name": "The Rightline Fitness - Best Gym in Galta gate | Rajapark | Transport Nagar | Jaipur City |",
        "address": "93-94 Lalita Mansion, Galta Rd, Rishi Galav Nagar, Jaipur, Rajasthan 302003",
        "website": "",
        "phone_number": "089468 68610",
        "reviews_count": "",
        "reviews_average": 4.9,
        "latitude": 26.921343,
        "longitude": 75.8145445,
        "status": "New",
        "notes": ""
    },
    {
        "name": "Flying Fitness",
        "address": "Basement of L & T Gold Loan, S. Jagjeet Plaza, 11/8-A, Govind Marg, near Parnami Mandir, Anand Puri, Bees Dukan, Raja Park, Jaipur, Rajasthan 302004",
        "website": "",
        "phone_number": "098281 00436",
        "reviews_count": "",
        "reviews_average": 4.9,
        "latitude": 26.8977885,
        "longitude": 75.7885184,
        "status": "New",
        "notes": ""
    },
    {
        "name": "Anytime Fitness",
        "address": "4th Floor, G.T Square, opposite Gaurav Tower Marg, Kalyan Colony, D-Block, Malviya Nagar, Jaipur, Rajasthan 302017",
        "website": "anytimefitness.co.in",
        "phone_number": "092160 55338",
        "reviews_count": "",
        "reviews_average": 4.4,
        "latitude": 26.854788,
        "longitude": 75.7710931,
        "status": "New",
        "notes": ""
    },
    {
        "name": "FITITCOUPLE",
        "address": "No.1, F-202, 2nd floor plot no:- 213, Pratap Building, Ram Gali Number 1, near Mahaveer Rabari Wala, Raja Park, Jaipur, Rajasthan 302004",
        "website": "",
        "phone_number": "073740 60606",
        "reviews_count": "",
        "reviews_average": 5.0,
        "latitude": 26.8937535,
        "longitude": 75.7892968,
        "status": "New",
        "notes": ""
    },
    {
        "name": "Fitness Society - The best gym and fitness center in Jaipur",
        "address": "Plot no. A 17, opposite Science Park, Subhash Nagar, Jaipur, Rajasthan 302016",
        "website": "",
        "phone_number": "089478 45748",
        "reviews_count": "",
        "reviews_average": 4.8,
        "latitude": 26.939795,
        "longitude": 75.7626163,
        "status": "New",
        "notes": ""
    },
    {
        "name": "The gym",
        "address": "Shree balaji tower, Address The Gym (shyam nagar, 113-114, New Sanganer Rd, opposite metro pillar, Kalyanpuri Extension, Shiv Puri Colony, Sodala, Jaipur, Rajasthan 302019",
        "website": "",
        "phone_number": "082786 27498",
        "reviews_count": "",
        "reviews_average": 4.7,
        "latitude": 26.8951662,
        "longitude": 75.7351674,
        "status": "New",
        "notes": ""
    },
    {
        "name": "F3 Fitness Jaipur",
        "address": "18-19, 18-19, near Kanwatia Circle, Sector 1, Ram Nagar, Shastri Nagar, Jaipur, Rajasthan 302016",
        "website": "f3gym.com",
        "phone_number": "083869 99983",
        "reviews_count": "",
        "reviews_average": 4.9,
        "latitude": 26.9464725,
        "longitude": 75.76297,
        "status": "New",
        "notes": ""
    },
    {
        "name": "Female Fitness Trainer - Bodyworks By Neha",
        "address": "C6 Dwarkapuri, Jamnalal Bajaj Marg, C Scheme, Jaipur, Rajasthan 302001",
        "website": "bodyworksbyneha.com",
        "phone_number": "099505 00999",
        "reviews_count": "",
        "reviews_average": 4.9,
        "latitude": 26.9090819,
        "longitude": 75.7566357,
        "status": "New",
        "notes": ""
    },
    {
        "name": "Fitrix Fitness",
        "address": "Under Triveni Pulia, Plot No 1A, Gopalpura Bypass Rd, Chandra Nagar, Muktanand Nagar, Gopal Pura Mode, Jaipur, Rajasthan 302018",
        "website": "fitrix.in",
        "phone_number": "063502 11095",
        "reviews_count": "",
        "reviews_average": 4.4,
        "latitude": 26.8641654,
        "longitude": 75.7522982,
        "status": "New",
        "notes": ""
    },
    {
        "name": "The Survivors Gym",
        "address": "A-28,First floor, Above Messy Door cafe T.b.Hospital road, Subash Nagar, Jaipur, Rajasthan 302016",
        "website": "",
        "phone_number": "082091 28622",
        "reviews_count": "",
        "reviews_average": 4.4,
        "latitude": 26.9384094,
        "longitude": 75.7611832,
        "status": "New",
        "notes": ""
    },
    {
        "name": "Force The Gym & personal training studio",
        "address": "D-34, near kabra eye hospital, Gulabi Nagar, Sodala, Jaipur, Rajasthan 302006",
        "website": "",
        "phone_number": "098295 78911",
        "reviews_count": "",
        "reviews_average": 5.0,
        "latitude": 26.9019354,
        "longitude": 75.7293874,
        "status": "New",
        "notes": ""
    },
    {
        "name": "The Gym Place Jaipur",
        "address": "1711, Daroga Ji Ki Badi haveli, Haldion Ka Rasta, Johri Bazar, Pink City, Jaipur, Rajasthan 302003",
        "website": "jaipurvocals.com",
        "phone_number": "",
        "reviews_count": "",
        "reviews_average": 4.2,
        "latitude": 26.920771,
        "longitude": 75.7914524,
        "status": "New",
        "notes": ""
    },
    {
        "name": "The Lion Gym",
        "address": "Galta Gate, A-1,In Basement,Samariya Apartment, Raghunath Colony,Front Of, Thana, Rajasthan 302003",
        "website": "",
        "phone_number": "085628 39000",
        "reviews_count": "",
        "reviews_average": 4.7,
        "latitude": 26.9193752,
        "longitude": 75.8133657,
        "status": "New",
        "notes": ""
    },
    {
        "name": "Sahil fitness gym",
        "address": "WR9M+XMX, Ghat Gate Bazar, Ramganj Bazar, Jaipur, Rajasthan 302003",
        "website": "instagram.com",
        "phone_number": "",
        "reviews_count": "",
        "reviews_average": 5.0,
        "latitude": 26.9193752,
        "longitude": 75.8133657,
        "status": "New",
        "notes": ""
    },
    {
        "name": "Profit Fitness India - India's Premium Gym Equipment Showroom",
        "address": "Building 31, Transport Nagar, Jaipur, Rajasthan 302004",
        "website": "profitfitnessindia.in",
        "phone_number": "092140 14182",
        "reviews_count": "",
        "reviews_average": 4.3,
        "latitude": 26.9193752,
        "longitude": 75.8133657,
        "status": "New",
        "notes": ""
    },
    {
        "name": "Fitness Force Gym",
        "address": "A-10, Netaji Subhash Nagar 2, Shiv Colony, Tonk Phatak, Jaipur, Rajasthan 302018",
        "website": "",
        "phone_number": "072199 09555",
        "reviews_count": "",
        "reviews_average": 4.7,
        "latitude": 26.8721521,
        "longitude": 75.7578812,
        "status": "New",
        "notes": ""
    },
    {
        "name": "Newway Fitness Elite",
        "address": "Metro piller No. 81, Devi nagar, near V mart, Vivek Vihar, Sodala, Jaipur, Rajasthan 302019",
        "website": "",
        "phone_number": "097999 09490",
        "reviews_count": "",
        "reviews_average": 4.9,
        "latitude": 26.8857859,
        "longitude": 75.7320476,
        "status": "New",
        "notes": ""
    },
    {
        "name": "WE FIT GYM",
        "address": "Ganesh Marg, Chhayadip Nagar, Mahesh Nagar, Gopal Pura Mode, Jaipur, Rajasthan 302015",
        "website": "",
        "phone_number": "078781 71858",
        "reviews_count": "",
        "reviews_average": 5.0,
        "latitude": 26.8857859,
        "longitude": 75.7320476,
        "status": "New",
        "notes": ""
    },
    {
        "name": "True Fit Gym",
        "address": "True fit Gym, NVN Rd, near Navjeevan school C2, Krishna Puri, rakdi, Jamuna Nagar, Sodala, Jaipur, Rajasthan 302006",
        "website": "instagram.com",
        "phone_number": "098877 33551",
        "reviews_count": "",
        "reviews_average": 5.0,
        "latitude": 26.8857859,
        "longitude": 75.7320476,
        "status": "New",
        "notes": ""
    },
    {
        "name": "AS Fitness Gym",
        "address": "321, near guman hotel, Ram Dwara Colony, Mahaveer Nagar, Mata colony, Durgapura, Jaipur, Rajasthan 302018",
        "website": "",
        "phone_number": "099294 56559",
        "reviews_count": "",
        "reviews_average": 5.0,
        "latitude": 26.8553661,
        "longitude": 75.7537426,
        "status": "New",
        "notes": ""
    },
    {
        "name": "Body fuel gym",
        "address": "B-76, Sahakar Marg, Lal Kothi Scheme, Lalkothi, Jaipur, Rajasthan 302015",
        "website": "",
        "phone_number": "03003 750 593",
        "reviews_count": "",
        "reviews_average": 4.5,
        "latitude": 26.886109,
        "longitude": 75.7598521,
        "status": "New",
        "notes": ""
    },
    {
        "name": "NS Fitness - A Complete Gymnasium",
        "address": "81 81, Nehru Bazar Rd, Ajmeri Gate, Modikhana, Jaipur, Rajasthan 302003",
        "website": "",
        "phone_number": "063786 09696",
        "reviews_count": "",
        "reviews_average": 5.0,
        "latitude": 26.9174278,
        "longitude": 75.7829625,
        "status": "New",
        "notes": ""
    },
    {
        "name": "ROYAL LIFE FITNESS GYM",
        "address": "VQX8+7WG, Manu Path Rd Number 5, Saket Nagar, Shyam Nagar, Jaipur, Rajasthan 302019",
        "website": "",
        "phone_number": "096676 70071",
        "reviews_count": "",
        "reviews_average": 4.9,
        "latitude": 26.898197,
        "longitude": 75.7312824,
        "status": "New",
        "notes": ""
    },
    {
        "name": "AmbitIon",
        "address": "Bai ji ki kothi, Roop Laxmi Markert, opp. Hanuman Mandir, Jhalana Doongri, Jaipur, Rajasthan 302004",
        "website": "",
        "phone_number": "085599 94309",
        "reviews_count": "",
        "reviews_average": 4.5,
        "latitude": 26.8721354,
        "longitude": 75.7854394,
        "status": "New",
        "notes": ""
    },
    {
        "name": "Muscle MAfia Fitness",
        "address": "F-10, Axis Mall, First floor, Nutrition Booth, Bhagwan Das Rd, C Scheme, Jaipur, Rajasthan 302001",
        "website": "musclemafia.in",
        "phone_number": "098280 67022",
        "reviews_count": "",
        "reviews_average": 4.9,
        "latitude": 26.8925492,
        "longitude": 75.6628834,
        "status": "New",
        "notes": ""
    },
    {
        "name": "Better U Fitness",
        "address": "338-A, hotel City home, Gali No. 4, Gurunanakpura, Raja Park, Jaipur, Rajasthan 302004",
        "website": "",
        "phone_number": "094688 87279",
        "reviews_count": "",
        "reviews_average": 4.3,
        "latitude": 26.8925492,
        "longitude": 75.6628834,
        "status": "New",
        "notes": ""
    },
    {
        "name": "1fit gym",
        "address": "1st floor, jamuna tower, govind Marg Anand puri, bees dukan Adarsh Nagar, Raja Park, Jaipur, Rajasthan 302004",
        "website": "fitoclock.co.in",
        "phone_number": "092160 56417",
        "reviews_count": "",
        "reviews_average": 4.6,
        "latitude": 26.8925492,
        "longitude": 75.6628834,
        "status": "New",
        "notes": ""
    },
    {
        "name": "Elite Fitness World",
        "address": "122D, Ram Gali Number 4, near AVM SCHOOL, Raja Park, Jaipur, Rajasthan 302004",
        "website": "oryxfitness.com",
        "phone_number": "099833 23332",
        "reviews_count": "",
        "reviews_average": 4.9,
        "latitude": 26.8925492,
        "longitude": 75.6628834,
        "status": "New",
        "notes": ""
    },
    {
        "name": "Golden Gym",
        "address": "Ground floor, G-2, Parivahan Marg, behind hotel rajmahal palace, Shivaji Nagar, C Scheme, Jaipur, Rajasthan 302001",
        "website": "8stepstudios.com",
        "phone_number": "080030 40506",
        "reviews_count": "",
        "reviews_average": 4.9,
        "latitude": 26.8925492,
        "longitude": 75.6628834,
        "status": "New",
        "notes": ""
    },
    {
        "name": "Shape and size gym",
        "address": "Telephone Rd, Telephone Colony, Barkat Nagar, Tonk Phatak, Jaipur, Rajasthan 302015",
        "website": "",
        "phone_number": "095095 86916",
        "reviews_count": "",
        "reviews_average": 5.0,
        "latitude": 26.8925492,
        "longitude": 75.6628834,
        "status": "New",
        "notes": ""
    },
    {
        "name": "F2 Fitness Freaks Gym",
        "address": "WRJ8+36G, Chandpole, Purani Basti, Jaipur, Rajasthan 302001",
        "website": "",
        "phone_number": "",
        "reviews_count": "",
        "reviews_average": 4.0,
        "latitude": 26.8925492,
        "longitude": 75.6628834,
        "status": "New",
        "notes": ""
    }
]