[
    {
        "name": "Anytime Fitness Bapu Nagar",
        "address": "5th Floor, Pavilion, Tonk Rd, Bapu Nagar, Jaipur, Rajasthan 302015",
        "website": "",
        "phone_number": "090574 03330",
        "reviews_count": "",
        "reviews_average": 4.5,
        "latitude": 26.8925492,
        "longitude": 75.7710301,
        "status": "New",
        "notes": ""
    },
    {
        "name": "KLEAN FIT Iconic C-SCHEME",
        "address": "3rd Floor, Crystal Palm Mall, 22 Godown Circle, Sardar Patel Marg, near Nehru Sahkar Bhavan, Jaipur, Rajasthan 302001",
        "website": "",
        "phone_number": "090246 62515",
        "reviews_count": "",
        "reviews_average": 4.7,
        "latitude": 26.8925492,
        "longitude": 75.7710301,
        "status": "New",
        "notes": ""
    },
    {
        "name": "Mad For Fitness | Best Gym in C-Scheme Jaipur",
        "address": "3rd Floor, Ahinsa Circle, D-38A, Ashok Marg, C Scheme, Ashok Nagar, Jaipur, Rajasthan 302001",
        "website": "",
        "phone_number": "070144 33443",
        "reviews_count": "",
        "reviews_average": 4.9,
        "latitude": 26.8925492,
        "longitude": 75.7710301,
        "status": "New",
        "notes": ""
    },
    {
        "name": "X CORE Fitness - Gym & Fitness Center | C-scheme Jaipur",
        "address": "4th Floor, City Mall, 406 to 411, Ashok Marg, opposite Shree Rajput Sabha bhawan, C-Scheme, C Scheme, Ashok Nagar, Jaipur, Rajasthan 302001",
        "website": "",
        "phone_number": "082908 86661",
        "reviews_count": "",
        "reviews_average": 4.4,
        "latitude": 26.8925492,
        "longitude": 75.7710301,
        "status": "New",
        "notes": ""
    },
    {
        "name": "Fitup Fitness Lifestyle",
        "address": "Bhagadiya Bhawan, J-33, Subhash Marg, C Scheme, Ashok Nagar, Jaipur, Rajasthan 302001",
        "website": "",
        "phone_number": "095719 95817",
        "reviews_count": "",
        "reviews_average": 4.9,
        "latitude": 26.905,
        "longitude": 75.758386,
        "status": "New",
        "notes": ""
    },
    {
        "name": "Fitness island gym (Lalkothi)",
        "address": "A1, Nehru Path, Satya Vihar, Friends Colony, Krishna Nagar II, Lalkothi, Jaipur, Rajasthan 302015",
        "website": "",
        "phone_number": "086397 36126",
        "reviews_count": "",
        "reviews_average": 4.8,
        "latitude": 26.905,
        "longitude": 75.758386,
        "status": "New",
        "notes": ""
    },
    {
        "name": "Burnfit gym | Best Gym In Jaipur",
        "address": "Plot no. A-7, behind Mehta book depo, Telephone Colony, Bank Colony, Gopal Pura Mode, Jaipur, Rajasthan 302015",
        "website": "",
        "phone_number": "082906 01516",
        "reviews_count": "",
        "reviews_average": 4.8,
        "latitude": 26.8769474,
        "longitude": 75.7606942,
        "status": "New",
        "notes": ""
    },
    {
        "name": "Muscle fit Club Raja park",
        "address": "506, near Geeta Bhawan, Kamal Vihar, Tiwari Ji Ka Bagh, Ashok Chowk, Adarsh Nagar, Jaipur, Rajasthan 302004",
        "website": "",
        "phone_number": "075683 87373",
        "reviews_count": "",
        "reviews_average": 4.9,
        "latitude": 26.8974185,
        "longitude": 75.7871681,
        "status": "New",
        "notes": ""
    },
    {
        "name": "STAY Y FIT - Fitness Center in Jaipur",
        "address": "Stay Y Fit Gym 2nd Floor 1-KA-11 Near Mama Ki Hotel, HDFC Bank Building, Jaipur, Rajasthan 302004",
        "website": "",
        "phone_number": "",
        "reviews_count": "",
        "reviews_average": 4.8,
        "latitude": 26.8974185,
        "longitude": 75.7871681,
        "status": "New",
        "notes": ""
    },
    {
        "name": "Open Air Gym",
        "address": "WR34+VGJ, Central Park Jogging Path, Rambagh, Jaipur, Rajasthan 302015",
        "website": "",
        "phone_number": "",
        "reviews_count": "",
        "reviews_average": 4.8,
        "latitude": 26.9043704,
        "longitude": 75.7708322,
        "status": "New",
        "notes": ""
    },
    {
        "name": "CrossFit Gym",
        "address": "A-9, Janta Store Cir, Bapu Nagar, Jaipur, Rajasthan 302015",
        "website": "",
        "phone_number": "079760 13905",
        "reviews_count": "",
        "reviews_average": 4.7,
        "latitude": 26.9043704,
        "longitude": 75.7708322,
        "status": "New",
        "notes": ""
    },
    {
        "name": "Better U Fitness",
        "address": "No.1, 1st Floor, Of tea connect, Near, 189, Ram Gali, Panchwati Cir, Raja Park, Jaipur, Rajasthan 302004",
        "website": "",
        "phone_number": "078913 74860",
        "reviews_count": "",
        "reviews_average": 4.9,
        "latitude": 26.8944344,
        "longitude": 75.7945222,
        "status": "New",
        "notes": ""
    },
    {
        "name": "LIFT & FIT gym",
        "address": "Satya Vihar, Krishna Nagar II, Lalkothi, Jaipur, Rajasthan 302015",
        "website": "",
        "phone_number": "094610 61508",
        "reviews_count": "",
        "reviews_average": 4.9,
        "latitude": 26.8891393,
        "longitude": 75.7634872,
        "status": "New",
        "notes": ""
    },
    {
        "name": "Fitness Gym by Aroha",
        "address": "B-11, behind Kailash Tower, Satya Vihar, Indra Puri, Vidhayak Nagar, Lalkothi, Jaipur, Rajasthan 302015",
        "website": "",
        "phone_number": "063674 08202",
        "reviews_count": "",
        "reviews_average": 5.0,
        "latitude": 26.8891393,
        "longitude": 75.7634872,
        "status": "New",
        "notes": ""
    },
    {
        "name": "Talwalkars HiFi Gym, Raja Park",
        "address": "Talwarkar Hi Fi gym, bank of baroda, near A.C. Market, Raja Park, Jaipur, Rajasthan 302004",
        "website": "",
        "phone_number": "086195 17256",
        "reviews_count": "",
        "reviews_average": 4.9,
        "latitude": 26.8932703,
        "longitude": 75.7895423,
        "status": "New",
        "notes": ""
    },
    {
        "name": "ONYX -The Fitness Studio",
        "address": "2nd Floor, The Landmark Building, Ahinsa Cir, C Scheme, Ashok Nagar, Jaipur, Rajasthan 302001",
        "website": "",
        "phone_number": "070147 98690",
        "reviews_count": "",
        "reviews_average": 5.0,
        "latitude": 26.9140763,
        "longitude": 75.769924,
        "status": "New",
        "notes": ""
    },
    {
        "name": "MaxFit Folks - Elite Personal training club, C-Scheme",
        "address": "E-159, Ramesh Marg, C Scheme, Ashok Nagar, Jaipur, Rajasthan 302001",
        "website": "",
        "phone_number": "099285 05942",
        "reviews_count": "",
        "reviews_average": 4.9,
        "latitude": 26.9140763,
        "longitude": 75.769924,
        "status": "New",
        "notes": ""
    },
    {
        "name": "Body Shaper The Gym",
        "address": "5, kailash vihar, New, Vidhan Sabha Rd, behind Kailash Tower, Satya Vihar, Greater Kailash Colony, Vidhayak Nagar, Lalkothi, Jaipur, Rajasthan 302015",
        "website": "",
        "phone_number": "098290 19227",
        "reviews_count": "",
        "reviews_average": 4.5,
        "latitude": 26.8882513,
        "longitude": 75.7663857,
        "status": "New",
        "notes": ""
    },
    {
        "name": "Newway Fitness Elite",
        "address": "Metro piller No. 81, Devi nagar, near V mart, Vivek Vihar, Sodala, Jaipur, Rajasthan 302019",
        "website": "",
        "phone_number": "097999 09490",
        "reviews_count": "",
        "reviews_average": 4.9,
        "latitude": 26.8857859,
        "longitude": 75.7320476,
        "status": "New",
        "notes": ""
    },
    {
        "name": "WORKOUT ADDA ELITE THE LUXURY GYM",
        "address": "Pn 114 B, Krishna Nagar-B, Avadhpuri, Mahesh Nagar, Gopal Pura Mode, Jaipur, Rajasthan 302015",
        "website": "",
        "phone_number": "096800 38787",
        "reviews_count": "",
        "reviews_average": 4.9,
        "latitude": 26.8797271,
        "longitude": 75.7514717,
        "status": "New",
        "notes": ""
    },
    {
        "name": "Natural fitness gym",
        "address": "Office no- 2, Harchand plaza, car parking, near, NBC Rd, Kamala Nehru Nagar, Hasanpura, Jaipur, Rajasthan 302006",
        "website": "",
        "phone_number": "088904 50309",
        "reviews_count": "",
        "reviews_average": 4.7,
        "latitude": 26.916625,
        "longitude": 75.7430473,
        "status": "New",
        "notes": ""
    },
    {
        "name": "Shape Shifters Gym",
        "address": "Root and teeth, opposite pink City, Krishna Nagar-B, Avadhpuri, Mahesh Nagar, honda, Jaipur, Rajasthan 302015",
        "website": "",
        "phone_number": "080055 81241",
        "reviews_count": "",
        "reviews_average": 4.4,
        "latitude": 26.8797,
        "longitude": 75.7514305,
        "status": "New",
        "notes": ""
    },
    {
        "name": "Lifetime Fitness Club",
        "address": "3rd Floor, at V Cube, Plot no. 1-6, opp. Gaurav Tower Marg, Kalyan Colony, D-Block, Malviya Nagar, Jaipur, Rajasthan 302017",
        "website": "",
        "phone_number": "099505 50885",
        "reviews_count": "",
        "reviews_average": 4.9,
        "latitude": 26.8548408,
        "longitude": 75.7708044,
        "status": "New",
        "notes": ""
    },
    {
        "name": "Icon fitness club",
        "address": "J-96, Tiwari Ji Ka Bagh, Ashok Chowk, Adarsh Nagar, Jaipur, Rajasthan 302004",
        "website": "",
        "phone_number": "",
        "reviews_count": "",
        "reviews_average": 4.7,
        "latitude": 26.9055208,
        "longitude": 75.7926625,
        "status": "New",
        "notes": ""
    },
    {
        "name": "The Gym Eagles (Gym Near Raja Park)",
        "address": "338-A, hotel City home, Gali No. 4, Gurunanakpura, Raja Park, Jaipur, Rajasthan 302004",
        "website": "",
        "phone_number": "094688 87279",
        "reviews_count": "",
        "reviews_average": 4.3,
        "latitude": 26.9055208,
        "longitude": 75.7926625,
        "status": "New",
        "notes": ""
    },
    {
        "name": "Fitness Connection - The best gym in rajapark",
        "address": "Plot No 438 3 B Om Jaideep Residency Opp Chandra Sekhar Aazad Park, Raja Park Jaipur, Jaipur, Rajasthan 302004",
        "website": "",
        "phone_number": "080033 49770",
        "reviews_count": "",
        "reviews_average": 5.0,
        "latitude": 26.9055208,
        "longitude": 75.7926625,
        "status": "New",
        "notes": ""
    },
    {
        "name": "360 Wellness",
        "address": "First Floor, C 225, Ganesh Marg, C-Block, Mahesh Nagar, Gopal Pura Mode, Jaipur, Rajasthan 302015",
        "website": "",
        "phone_number": "098292 90860",
        "reviews_count": "",
        "reviews_average": 4.9,
        "latitude": 26.8793237,
        "longitude": 75.7407842,
        "status": "New",
        "notes": ""
    },
    {
        "name": "FitCity by Abhishek",
        "address": "D, 29, Subhash Marg, Panch Batti, C Scheme, Ashok Nagar, Jaipur, Rajasthan 302001",
        "website": "",
        "phone_number": "",
        "reviews_count": "",
        "reviews_average": 4.9,
        "latitude": 26.9111158,
        "longitude": 75.765983,
        "status": "New",
        "notes": ""
    },
    {
        "name": "Coach AJ Fitness - Elite Fitness Studio",
        "address": "A-24, 5th Floor, Jharwal House, Sardar Patel Marg, opp. Government Press, C-Scheme, Patel Colony, Jaipur, Rajasthan 302001",
        "website": "",
        "phone_number": "097721 22222",
        "reviews_count": "",
        "reviews_average": 4.9,
        "latitude": 26.9154325,
        "longitude": 75.7639279,
        "status": "New",
        "notes": ""
    },
    {
        "name": "Fitness Forge Gym",
        "address": "SS Bhandari Nagar MJRP Circle, A-66, Swej Farm Rd, behind Zudio, Sunder Singh Bhandari Nagar, Ganesh Nagar, Sodala, Jaipur, Rajasthan 302019",
        "website": "",
        "phone_number": "099295 38007",
        "reviews_count": "",
        "reviews_average": 4.8,
        "latitude": 26.8914974,
        "longitude": 75.7363249,
        "status": "New",
        "notes": ""
    },
    {
        "name": "Body Temple Gym 2",
        "address": "Plot No.8, near prince hotel, Ambedkar Nagar, Tonk Phatak, Jaipur, Rajasthan 302015",
        "website": "",
        "phone_number": "096673 19072",
        "reviews_count": "",
        "reviews_average": 4.9,
        "latitude": 26.88125,
        "longitude": 75.7603771,
        "status": "New",
        "notes": ""
    },
    {
        "name": "Swimming Pool & Gym",
        "address": "VRX2+QW7, golf club, Rambagh, Jaipur, Rajasthan 302015",
        "website": "",
        "phone_number": "",
        "reviews_count": "",
        "reviews_average": 2.4,
        "latitude": 26.8925492,
        "longitude": 75.6628834,
        "status": "New",
        "notes": ""
    },
    {
        "name": "The Rightline Fitness - Best Gym in Galta gate | Rajapark | Transport Nagar | Jaipur City |",
        "address": "93-94 Lalita Mansion, Galta Rd, Rishi Galav Nagar, Jaipur, Rajasthan 302003",
        "website": "",
        "phone_number": "089468 68610",
        "reviews_count": "",
        "reviews_average": 4.9,
        "latitude": 26.9297391,
        "longitude": 75.7013962,
        "status": "New",
        "notes": ""
    },
    {
        "name": "Trendz Fitness Point and Beauty Clinic",
        "address": "basement b-2, D-37-38, Jawahar Nagar Marg, Patrakar Colony, Sector 2, Adarsh Nagar, Jaipur, Rajasthan 302004",
        "website": "",
        "phone_number": "094142 19627",
        "reviews_count": "",
        "reviews_average": 4.8,
        "latitude": 26.9297391,
        "longitude": 75.7013962,
        "status": "New",
        "notes": ""
    },
    {
        "name": "THE SKY GYM",
        "address": "Jaisinghpura Khor, Jaipur, Rajasthan 302027",
        "website": "",
        "phone_number": "077376 44913",
        "reviews_count": "",
        "reviews_average": 5.0,
        "latitude": 26.9297391,
        "longitude": 75.7013962,
        "status": "New",
        "notes": ""
    },
    {
        "name": "FIRE FIT GYM",
        "address": "Shrimal Colony, Laxmi Narayan Puri, Jaipur, Rajasthan 302002",
        "website": "",
        "phone_number": "096600 00603",
        "reviews_count": "",
        "reviews_average": 4.7,
        "latitude": 26.9297391,
        "longitude": 75.7013962,
        "status": "New",
        "notes": ""
    },
    {
        "name": "FLEX FITNESS AND GYM",
        "address": "50, Shree Chandra Nagar, Air force school, Gujarghati, Parasrampuri, Jaipur, Rajasthan 302002",
        "website": "",
        "phone_number": "073001 35647",
        "reviews_count": "",
        "reviews_average": 4.9,
        "latitude": 26.9297391,
        "longitude": 75.7013962,
        "status": "New",
        "notes": ""
    },
    {
        "name": "Flex Studio's Gym & Fitness",
        "address": "450, Tatkaleshwarpuri, Hida Ki Mori, Ramganj Bazar, Jaipur, Rajasthan 302003",
        "website": "",
        "phone_number": "095218 88899",
        "reviews_count": "",
        "reviews_average": 4.5,
        "latitude": 26.9297391,
        "longitude": 75.7013962,
        "status": "New",
        "notes": ""
    },
    {
        "name": "Bapu the fitness",
        "address": "First floor, Kanji nagar, Main, Agra Rd, near Prem Nagar, Kanzi Nagar, Jaipur, Rajasthan 302031",
        "website": "",
        "phone_number": "084418 63021",
        "reviews_count": "",
        "reviews_average": 4.9,
        "latitude": 26.9297391,
        "longitude": 75.7013962,
        "status": "New",
        "notes": ""
    },
    {
        "name": "Aditya Fitness Club Gym",
        "address": "Near By Trilok Nursing Home Lakhesra Road Naya Bagrana, Agra Rd, Jaipur, Rajasthan 303012",
        "website": "",
        "phone_number": "083879 83241",
        "reviews_count": "",
        "reviews_average": 5.0,
        "latitude": 26.8742473,
        "longitude": 75.7881854,
        "status": "New",
        "notes": ""
    },
    {
        "name": "Be Strong Fitness Club",
        "address": "E10, 11, Agra Rd, near by bank of Baroda, Vijay Nagar, Paldi Meena, Jaipur, Bagrana, Rajasthan 302031",
        "website": "",
        "phone_number": "",
        "reviews_count": "",
        "reviews_average": 4.8,
        "latitude": 26.8770246,
        "longitude": 75.7717392,
        "status": "New",
        "notes": ""
    }
]